{"id": "220100001", "name": "伪满皇宫博物院", "level": 5, "address": "长春市光复北路5号", "lat": 43.911459, "lng": 125.355245, "uid": "969ee0484375382dadb22a92", "tag": "旅游景点;风景区", "subway": [{"name": "伪皇宫", "line": "轻轨4号线", "lat": "43.911504", "lng": "125.358721", "distance_walking": 957, "duration_walking": 764}]}
{"id": "220100002", "name": "净月潭国家森林公园", "level": 5, "address": "长春市净月大街5860号", "lat": 43.788327, "lng": 125.477467, "uid": "9a34d73e9db30f0d33870a6e", "tag": "旅游景点;风景区", "subway": [{"name": "滑雪场", "line": "轻轨3号线", "lat": "43.782183", "lng": "125.456102", "distance_walking": 0, "duration_walking": 0}]}
{"id": "220100003", "name": "长影世纪城", "level": 5, "address": "长春市长双公路4.5公里", "lat": 43.777709, "lng": 125.453914, "uid": "4ce10ce624f934a1441a32cc", "tag": "旅游景点;风景区", "subway": [{"name": "长影世纪城", "line": "轻轨3号线", "lat": "43.777288", "lng": "125.456929", "distance_walking": 346, "duration_walking": 275}]}
{"id": "220100004", "name": "长春世界雕塑公园", "level": 5, "address": "长春市人民大街9518号", "lat": 43.828598, "lng": 125.339511, "uid": "7aea43b7ed5d51f87c29bdcd", "tag": "旅游景点;风景区", "subway": [{"name": "市政府", "line": "地铁1号线", "lat": "43.82505", "lng": "125.332806", "distance_walking": 2583, "duration_walking": 2062}]}
{"id": "220100005", "name": "莲花山滑雪场北门售票处", "level": 4, "address": "长春市二道区四家乡", "lat": 43.872951, "lng": 125.754462, "uid": "1d70b5d6d3c45c8c8c1a8982", "tag": "生活服务;售票处"}
{"id": "220100006", "name": "长春农业博览园", "level": 4, "address": "长春市净月大街4775号", "lat": 43.817529, "lng": 125.439515, "uid": "134b7faf0378e1f4f4e73bed", "tag": "公司企业;农林园艺", "subway": [{"name": "农博园", "line": "轻轨3号线", "lat": "43.820355", "lng": "125.451568", "distance_walking": 1083, "duration_walking": 865}]}
{"id": "220100007", "name": "长春御龙温泉度假村", "level": 4, "address": "双阳区平湖街道办事处杨家村2社", "lat": 43.601862, "lng": 125.712074, "uid": "1cea15a9111242b806fef59e", "tag": "休闲娱乐;度假村"}
{"id": "220100008", "name": "关东文化园", "level": 4, "address": "长春市绿园区长白公路与西四环路交汇北行1公里", "lat": 43.951866, "lng": 125.231854, "uid": "936660dc5143b7f35d17c31f", "tag": "无"}
{"id": "220100009", "name": "东北民族民俗馆", "level": 4, "address": "长春市经济技术开发区卫星路98号 499193376", "lat": 43.844284, "lng": 125.410149, "uid": "b251198af145542c17764340", "tag": "旅游景点;博物馆", "subway": [{"name": "世纪广场", "line": "轻轨3号线", "lat": "43.84314", "lng": "125.409398", "distance_walking": 491, "duration_walking": 392}]}
{"id": "220100010", "name": "动植物公园", "level": 4, "address": "长春市自由大路25号", "lat": 43.869885, "lng": 125.340549, "uid": "176d163d6893be6646e27431", "tag": "无", "subway": [{"name": "东北师大", "line": "地铁1号线", "lat": "43.869874", "lng": "125.33179", "distance_walking": 695, "duration_walking": 556}]}
{"id": "220100011", "name": "吉林省酒文化博物馆", "level": 4, "address": "长春市亚泰大街9699号", "lat": 43.833859, "lng": 125.347095, "uid": "b7d8fc1bc42d0664e60738a8", "tag": "旅游景点;博物馆", "subway": [{"name": "亚泰大街", "line": "轻轨3号线", "lat": "43.838289", "lng": "125.345987", "distance_walking": 565, "duration_walking": 450}]}
{"id": "220100012", "name": "长影旧址博物馆", "level": 4, "address": "长春市朝阳区红旗街1118区", "lat": 43.86996, "lng": 125.298702, "uid": "2c07451de06aa04ab120a87d", "tag": "旅游景点;博物馆", "subway": [{"name": "湖西桥", "line": "轻轨3号线", "lat": "43.876114", "lng": "125.288808", "distance_walking": 1178, "duration_walking": 940}]}
{"id": "220100013", "name": "天怡温泉度假山庄停车场", "level": 4, "address": "长春市净月开发区新湖镇东盛屯金家沟", "lat": 43.593553, "lng": 125.395489, "uid": "f05909067d7c37706949f37c", "tag": "交通设施;停车场"}
{"id": "220100014", "name": "吉林省自然村", "level": 3, "address": "长春市朝阳区永春镇", "lat": 43.695567, "lng": 125.337473, "uid": "cb4d77a8974e86cb54bfff82", "tag": "旅游景点;风景区"}
{"id": "220100015", "name": "国家吊水壶森林公园", "level": 3, "address": "双阳区山河街道办事处柳树村五社", "lat": 43.358321, "lng": 125.879024, "uid": "9fbfeef23899c745ede4a533", "tag": "旅游景点;公园"}
{"id": "220100016", "name": "剑鹏马城", "level": 3, "address": "农安县华家镇", "lat": 44.285253, "lng": 125.032874, "uid": "a766853c72eb81fe29fc48d4", "tag": "旅游景点"}
{"id": "220100017", "name": "辽塔游园景区", "level": 3, "address": "吉林省农安县农安镇宝塔街", "lat": 44.434823, "lng": 125.181599, "uid": "4eb3b533e737cb7543024567", "tag": "旅游景点;文物古迹"}
{"id": "220100018", "name": "绿宝石山庄", "level": 3, "address": "双阳区山河街道办事处阳平村1社", "lat": 43.440628, "lng": 125.831062, "uid": "374063ea15fff13208ccdd50", "tag": "休闲娱乐;农家院"}
{"id": "220100019", "name": "牛头山水库", "level": 2, "address": "九台市其塔木镇双城村", "lat": 44.338557, "lng": 126.260071, "uid": "627f65176875b396c2f1cf42", "tag": "自然地物;水系"}
{"id": "220100020", "name": "新洲公园", "level": 2, "address": "九台市福临大街新洲小区", "lat": 44.139846, "lng": 125.826924, "uid": "08ac25f463a76f42c056ac35", "tag": "旅游景点;公园"}
{"id": "220100021", "name": "吉林大学朝阳校区-地质宫博物馆", "level": 2, "address": "长春市朝阳区西民主大街938号", "lat": 43.888502, "lng": 125.314314, "uid": "244d71d1a51bd385d3ff2391", "tag": "旅游景点;博物馆", "subway": [{"name": "南昌路", "line": "轻轨3号线", "lat": "43.896274", "lng": "125.303404", "distance_walking": 1860, "duration_walking": 1486}]}
{"id": "220100022", "name": "雨航山庄", "level": 2, "address": "九台市西营城烧锅村7队", "lat": 43.965548, "lng": 125.826737, "uid": "aeaf5f8922f232648715415d", "tag": "休闲娱乐;农家院"}
{"id": "220100023", "name": "吉海休闲度假村", "level": 2, "address": "榆树市工农大路", "lat": 44.829565, "lng": 126.344492, "uid": "01ed0b2e9164046729fc4854", "tag": "休闲娱乐;度假村"}
{"id": "220100024", "name": "小乡展览馆", "level": 2, "address": "榆树市土桥镇街道", "lat": 44.618483, "lng": 127.042142, "uid": "0e594fd58feb4d83aecb6698", "tag": "文化传媒;展览馆"}
{"id": "220100025", "name": "南山公园", "level": 2, "address": "九台市内三中对面", "lat": 44.152911, "lng": 125.851049, "uid": "4eb3b533e7c1cb7543024515", "tag": "旅游景点;公园"}
{"id": "220100026", "name": "青云寺", "level": 1, "address": "九台市沿河街", "lat": 44.160809, "lng": 125.86621, "uid": "f4a33da9f47f3e093010af14", "tag": "旅游景点;文物古迹"}
{"id": "220100027", "name": "浴泉庵", "level": 1, "address": "九台市新华大街", "lat": 44.163892, "lng": 125.855453, "uid": "04bdf4a3c925f14f354aae14", "tag": "旅游景点;文物古迹"}
{"id": "220100028", "name": "溪桥游园", "level": 1, "address": "九台市长通路三中左侧", "lat": 44.149469, "lng": 125.840044, "uid": "d4034eb3bbb81cf6c0364415", "tag": "旅游景点;公园"}
{"id": "220100029", "name": "红豆杉庄园", "level": 1, "address": "九台市波泥河镇平安堡", "lat": 43.950766, "lng": 125.809947, "uid": "0e6e6f0ae54de78d4302453e", "tag": "公司企业;农林园艺"}
{"id": "220100030", "name": "明达休闲园", "level": 1, "address": "九台市九榆公路约三公里处", "lat": 44.188686, "lng": 125.870827, "uid": "fc767524ffc427fa4e776e15", "tag": "旅游景点;风景区"}
